{
"type":"trip",
"version":3,
"options": { "distance":"miles", "optimization":"0.6", "map":"svg" },
"title":"Sprint 4 Check 1",
"places": [
  { "id":"00CO",
    "name":"Cass Field",
    "latitude":"40.62220001220703",
    "longitude":"-104.34400177001953",
    "municipality":"Briggsdale"
  },
  { "id":"05V",
    "name":"Blanca Airport",
    "latitude":"37.41109848022461",
    "longitude":"-105.552001953125",
    "municipality":"Blanca"
  },
  { "id":"0CD1",
    "name":"Colorado Plains Medical Center Heliport",
    "latitude":"40.2610917",
    "longitude":"-103.7963389",
    "municipality":"Fort Morgan"
  },
  { "id":"0CD5",
    "name":"Pinon Canyon Airport",
    "latitude":"37.490501403799996",
    "longitude":"-104.143997192",
    "municipality":"Trinidad"
  },
  { "id":"0CD6",
    "name":"Exempla Good Samaritan Heliport",
    "latitude":"39.971698761",
    "longitude":"-105.084999084",
    "municipality":"Lafayette"
  },
  { "id":"1CD4",
    "name":"Eagle Soaring Airport",
    "latitude":"40.509300231933594",
    "longitude":"-106.94300079345703",
    "municipality":"Steam Boat Springs"
  },
  { "id":"1CD5",
    "name":"Rio Grande Hospital Heliport",
    "latitude":"37.67499923706055",
    "longitude":"-106.36299896240234",
    "municipality":"Del Norte"
  },
  { "id":"1CO2",
    "name":"Williams Ranch Airport",
    "latitude":"38.162498474121094",
    "longitude":"-108.33999633789062",
    "municipality":"Norwood"
  },
  { "id":"1CO5",
    "name":"Melon Field",
    "latitude":"38.01530075073242",
    "longitude":"-103.6989974975586",
    "municipality":"Rocky Ford"
  },
  { "id":"1CO9",
    "name":"MCHD Heliport",
    "latitude":"37.362998962402344",
    "longitude":"-108.57499694824219",
    "municipality":"Cortez"
  },
  { "id":"25CD",
    "name":"Lux Field",
    "latitude":"39.152333",
    "longitude":"-105.720167",
    "municipality":"Hartsel"
  },
  { "id":"25CO",
    "name":"Crystal Lakes Airport",
    "latitude":"40.851600646972656",
    "longitude":"-105.63300323486328",
    "municipality":"Red Feather Lakes"
  },
  { "id":"2CO9",
    "name":"Lands End Heliport",
    "latitude":"39.072167",
    "longitude":"-108.511167",
    "municipality":"Grand Junction"
  },
  { "id":"3CO3",
    "name":"Sterling Regional Medical Center Heliport",
    "latitude":"40.61249923706055",
    "longitude":"-103.22000122070312",
    "municipality":"Sterling"
  },
  { "id":"3CO9",
    "name":"D B Smith Memorial Heliport",
    "latitude":"38.712501525878906",
    "longitude":"-105.14199829101562",
    "municipality":"Victor"
  },
  { "id":"46CO",
    "name":"Huerfano Agricultural Airport",
    "latitude":"38.099998474121094",
    "longitude":"-104.4260025024414",
    "municipality":"Pueblo"
  },
  { "id":"4CO5",
    "name":"Pioneers Heliport",
    "latitude":"40.04140090942383",
    "longitude":"-107.91100311279297",
    "municipality":"Meeker"
  },
  { "id":"59CO",
    "name":"Comanche Livestock Airport",
    "latitude":"39.83330154418945",
    "longitude":"-104.31700134277344",
    "municipality":"Strasburg"
  },
  { "id":"5CO0",
    "name":"Cheyenne Wells Municipal Airport",
    "latitude":"38.81669998168945",
    "longitude":"-102.30599975585938",
    "municipality":"Cheyenne Wells"
  },
  { "id":"7CO2",
    "name":"Hawkins Ranch Airport",
    "latitude":"38.84159851074219",
    "longitude":"-107.8759994506836",
    "municipality":"Hotchkiss"
  },
  { "id":"87CO",
    "name":"Young's Strip",
    "latitude":"39.69110107421875",
    "longitude":"-104.41600036621094",
    "municipality":"Bennett"
  },
  { "id":"8CO1",
    "name":"Prospect Peak Heliport",
    "latitude":"38.47779846191406",
    "longitude":"-105.52100372314453",
    "municipality":"Texas Creek"
  },
  { "id":"91CO",
    "name":"Summit Medical Center Heliport",
    "latitude":"39.58140182495117",
    "longitude":"-106.09200286865234",
    "municipality":"Frisco"
  },
  { "id":"94CO",
    "name":"Ponderosa Heliport",
    "latitude":"38.08470153808594",
    "longitude":"-107.70099639892578",
    "municipality":"Ouray"
  },
  { "id":"9CO4",
    "name":"Indian Hills/Fire Department Heliport",
    "latitude":"39.63669967651367",
    "longitude":"-105.26699829101562",
    "municipality":"Indian Hills"
  },
  { "id":"CD00",
    "name":"Emancipation Hill Heliport",
    "latitude":"40.0536003112793",
    "longitude":"-105.36000061035156",
    "municipality":"Boulder"
  },
  { "id":"CD12",
    "name":"Gunnison Valley Hospital Heliport",
    "latitude":"38.551700592041016",
    "longitude":"-106.92500305175781",
    "municipality":"Gunnison"
  },
  { "id":"CD15",
    "name":"Schantz Airstrip",
    "latitude":"39.2963981628418",
    "longitude":"-104.125",
    "municipality":"Simla"
  },
  { "id":"CD19",
    "name":"Arapahoe Heliport",
    "latitude":"39.690799713134766",
    "longitude":"-105.50499725341797",
    "municipality":"Idaho Springs"
  },
  { "id":"CD24",
    "name":"Red Canyon Ranch Heliport",
    "latitude":"39.352500915527344",
    "longitude":"-105.00700378417969",
    "municipality":"Castle Rock"
  },
  { "id":"CD32",
    "name":"Castle Lakes Airport",
    "latitude":"37.90919876098633",
    "longitude":"-107.3499984741211",
    "municipality":"Lake City"
  },
  { "id":"CD35",
    "name":"Pleasant View Heliport",
    "latitude":"37.599998474121094",
    "longitude":"-108.63400268554688",
    "municipality":"Dove Creek"
  },
  { "id":"CD50",
    "name":"Teepee Park Heliport",
    "latitude":"40.150001525878906",
    "longitude":"-107.86699676513672",
    "municipality":"Meeker"
  },
  { "id":"CD52",
    "name":"Mount Princeton Heliport",
    "latitude":"38.74530029296875",
    "longitude":"-106.19999694824219",
    "municipality":"Mount Princeton"
  },
  { "id":"CD54",
    "name":"Raspberry Heliport",
    "latitude":"38.29999923706055",
    "longitude":"-108.18399810791016",
    "municipality":"Norwood"
  },
  { "id":"CD55",
    "name":"Norwood Junction Heliport",
    "latitude":"38.099998474121094",
    "longitude":"-106.28399658203125",
    "municipality":"Norwood"
  },
  { "id":"CD57",
    "name":"Grouse Mountain Heliport",
    "latitude":"40.13330078125",
    "longitude":"-106.16699981689453",
    "municipality":"Parshall"
  },
  { "id":"CD66",
    "name":"Rio Blanco Heliport",
    "latitude":"39.70000076293945",
    "longitude":"-107.95099639892578",
    "municipality":"Rio Blanco"
  },
  { "id":"CD68",
    "name":"Silverton Junction Heliport",
    "latitude":"37.79999923706055",
    "longitude":"-107.66699981689453",
    "municipality":"Silverton"
  },
  { "id":"CD77",
    "name":"Castle Peak Heliport",
    "latitude":"39.70000076293945",
    "longitude":"-106.76699829101562",
    "municipality":"Wolcott"
  },
  { "id":"CO07",
    "name":"Athanasiou Valley Airport",
    "latitude":"39.85419845581055",
    "longitude":"-105.47100067138672",
    "municipality":"Blackhawk"
  },
  { "id":"CO22",
    "name":"Hildebrandt Airport",
    "latitude":"39.27916717529297",
    "longitude":"-102.4749984741211",
    "municipality":"Bethune"
  },
  { "id":"CO46",
    "name":"Mercy Regional Medical Center Heliport",
    "latitude":"37.2832984924",
    "longitude":"-107.874000549",
    "municipality":"Durango"
  },
  { "id":"CO69",
    "name":"Dan Riggs Memorial Heliport",
    "latitude":"38.14780044555664",
    "longitude":"-105.46700286865234",
    "municipality":"Westcliffe"
  },
  { "id":"CO73",
    "name":"Air-Sprayers Nr 2 Airport",
    "latitude":"38.099998474121094",
    "longitude":"-102.21700286865234",
    "municipality":"Hartman"
  },
  { "id":"CO78",
    "name":"Lincoln Community Hospital Heliport",
    "latitude":"39.13330078125",
    "longitude":"-103.46700286865234",
    "municipality":"Hugo"
  },
  { "id":"K33V",
    "name":"Walden Jackson County Airport",
    "latitude":"40.75040054321289",
    "longitude":"-106.27100372314453",
    "municipality":"Walden"
  },
  { "id":"K4V1",
    "name":"Spanish Peaks Airfield",
    "latitude":"37.69660187",
    "longitude":"-104.7839966",
    "municipality":"Walsenburg"
  },
  { "id":"K7V8",
    "name":"Julesburg Municipal Airport",
    "latitude":"40.97079849",
    "longitude":"-102.3150024",
    "municipality":"Julesburg"
  },
  { "id":"K7V9",
    "name":"City of Las Animas Bent County Airport",
    "latitude":"38.052799224853516",
    "longitude":"-103.23699951171875",
    "municipality":"Las Animas"
  },
  { "id":"K8V7",
    "name":"Springfield Municipal Airport",
    "latitude":"37.45869827270508",
    "longitude":"-102.61799621582031",
    "municipality":"Springfield"
  },
  { "id":"K9V7",
    "name":"Eads Municipal Airport",
    "latitude":"38.475101470947266",
    "longitude":"-102.81099700927734",
    "municipality":"Eads"
  },
  { "id":"KA50",
    "name":"Colorado Springs East Airport",
    "latitude":"38.8744010925293",
    "longitude":"-104.41000366210938",
    "municipality":"Ellicott"
  },
  { "id":"KAKO",
    "name":"Colorado Plains Regional Airport",
    "latitude":"40.1755981445",
    "longitude":"-103.222000122",
    "municipality":"Akron"
  },
  { "id":"KALS",
    "name":"San Luis Valley Regional Bergman Field",
    "latitude":"37.434898",
    "longitude":"-105.866997",
    "municipality":"Alamosa"
  },
  { "id":"KASE",
    "name":"Aspen-Pitkin Co/Sardy Field",
    "latitude":"39.22320175",
    "longitude":"-106.8690033",
    "municipality":"Aspen"
  },
  { "id":"KC24",
    "name":"Mineral County Memorial Airport",
    "latitude":"37.8208007812",
    "longitude":"-106.930999756",
    "municipality":"Creede"
  },
  { "id":"KDEN",
    "name":"Denver International Airport",
    "latitude":"39.861698150635",
    "longitude":"-104.672996521",
    "municipality":"Denver"
  },
  { "id":"KHEQ",
    "name":"Holyoke Airport",
    "latitude":"40.569400787353516",
    "longitude":"-102.27300262451172",
    "municipality":"Holyoke"
  },
  { "id":"KLXV",
    "name":"Lake County Airport",
    "latitude":"39.220298767100005",
    "longitude":"-106.317001343",
    "municipality":"Leadville"
  },
  { "id":"KPSO",
    "name":"Stevens Field",
    "latitude":"37.28630066",
    "longitude":"-107.0559998",
    "municipality":"Pagosa Springs"
  },
  { "id":"US-0077",
    "name":"Sand Arroya Airport",
    "latitude":"38.45280075",
    "longitude":"-103.5299988",
    "municipality":"Sugar City"
  }
]
}
